{"type":"FeatureCollection", "features": [
{"type":"Feature","geometry":{"type":"Point","coordinates":[-4.4249822,36.7198761,0]},"properties":{"name":"Salida | 17.15 h.","styleUrl":"#icon-1899-0288D1-nodesc","icon-opacity":1,"icon-color":"#0288d1","icon-scale":1,"icon-offset":[32,64],"icon-offset-units":["pixels","insetPixels"],"icon":"https://www.gstatic.com/mapspro/images/stock/503-wht-blank_maps.png"}},
{"type":"Feature","geometry":{"type":"Point","coordinates":[-4.4249678,36.7198105,0]},"properties":{"name":"Encierro | 23.50 h.","styleUrl":"#icon-1899-0288D1-nodesc","icon-opacity":1,"icon-color":"#0288d1","icon-scale":1,"icon-offset":[32,64],"icon-offset-units":["pixels","insetPixels"],"icon":"https://www.gstatic.com/mapspro/images/stock/503-wht-blank_maps.png"}},
{"type":"Feature","geometry":{"type":"Point","coordinates":[-4.4220913,36.7209263,0]},"properties":{"name":"Tribuna | 18.00 h.","styleUrl":"#icon-1899-0288D1-nodesc","icon-opacity":1,"icon-color":"#0288d1","icon-scale":1,"icon-offset":[32,64],"icon-offset-units":["pixels","insetPixels"],"icon":"https://www.gstatic.com/mapspro/images/stock/503-wht-blank_maps.png"}},
{"type":"Feature","geometry":{"type":"Point","coordinates":[-4.41995,36.719705,0]},"properties":{"name":"Torre Sur | 20.00 h.","styleUrl":"#icon-1899-0288D1-nodesc","icon-opacity":1,"icon-color":"#0288d1","icon-scale":1,"icon-offset":[32,64],"icon-offset-units":["pixels","insetPixels"],"icon":"https://www.gstatic.com/mapspro/images/stock/503-wht-blank_maps.png"}},
{"type":"Feature","geometry":{"type":"Point","coordinates":[-4.4192401,36.7201583,0]},"properties":{"name":"Catedral | 20.10 h.","styleUrl":"#icon-1899-0288D1-nodesc","icon-opacity":1,"icon-color":"#0288d1","icon-scale":1,"icon-offset":[32,64],"icon-offset-units":["pixels","insetPixels"],"icon":"https://www.gstatic.com/mapspro/images/stock/503-wht-blank_maps.png"}}
]}