{"type":"FeatureCollection", "features": [
{"type":"Feature","geometry":{"type":"Point","coordinates":[-4.4250462,36.7216413,0]},"properties":{"name":"11.30 h. | Pollinica","description":"Tribuna de los Pobres","styleUrl":"#icon-1899-0288D1","icon-opacity":1,"icon-color":"#0288d1","icon-scale":1,"icon-offset":[32,64],"icon-offset-units":["pixels","insetPixels"],"icon":"https://www.gstatic.com/mapspro/images/stock/503-wht-blank_maps.png"}},
{"type":"Feature","geometry":{"type":"Point","coordinates":[-4.4214104,36.7294213,0]},"properties":{"name":"14.15 h. | Dulce Nombre","description":"Capuchinos","styleUrl":"#icon-1899-0288D1","icon-opacity":1,"icon-color":"#0288d1","icon-scale":1,"icon-offset":[32,64],"icon-offset-units":["pixels","insetPixels"],"icon":"https://www.gstatic.com/mapspro/images/stock/503-wht-blank_maps.png"}},
{"type":"Feature","geometry":{"type":"Point","coordinates":[-4.4241476,36.7251452,0]},"properties":{"name":"16.00 h. | Salutación","description":"Monasterio de San José (Carmelitas)","styleUrl":"#icon-1899-0288D1","icon-opacity":1,"icon-color":"#0288d1","icon-scale":1,"icon-offset":[32,64],"icon-offset-units":["pixels","insetPixels"],"icon":"https://www.gstatic.com/mapspro/images/stock/503-wht-blank_maps.png"}},
{"type":"Feature","geometry":{"type":"Point","coordinates":[-4.4259052,36.7178078,0]},"properties":{"name":"18.00 h. | Huerto","description":"Puente de la Esperanza","styleUrl":"#icon-1899-0288D1","icon-opacity":1,"icon-color":"#0288d1","icon-scale":1,"icon-offset":[32,64],"icon-offset-units":["pixels","insetPixels"],"icon":"https://www.gstatic.com/mapspro/images/stock/503-wht-blank_maps.png"}},
{"type":"Feature","geometry":{"type":"Point","coordinates":[-4.425567,36.72174,0]},"properties":{"name":"19.00 h. | Salud","description":"Puente de la Aurora","styleUrl":"#icon-1899-0288D1","icon-opacity":1,"icon-color":"#0288d1","icon-scale":1,"icon-offset":[32,64],"icon-offset-units":["pixels","insetPixels"],"icon":"https://www.gstatic.com/mapspro/images/stock/503-wht-blank_maps.png"}},
{"type":"Feature","geometry":{"type":"Point","coordinates":[-4.4193094,36.7201371,0]},"properties":{"name":"20.05 h. | Humildad y Paciencia","description":"Catedral de Málaga","styleUrl":"#icon-1899-0288D1","icon-opacity":1,"icon-color":"#0288d1","icon-scale":1,"icon-offset":[32,64],"icon-offset-units":["pixels","insetPixels"],"icon":"https://www.gstatic.com/mapspro/images/stock/503-wht-blank_maps.png"}},
{"type":"Feature","geometry":{"type":"Point","coordinates":[-4.4193074,36.7215282,0]},"properties":{"name":"21.00 h. | Humildad","description":"Calle Echegaray","styleUrl":"#icon-1899-0288D1","icon-opacity":1,"icon-color":"#0288d1","icon-scale":1,"icon-offset":[32,64],"icon-offset-units":["pixels","insetPixels"],"icon":"https://www.gstatic.com/mapspro/images/stock/503-wht-blank_maps.png"}},
{"type":"Feature","geometry":{"type":"Point","coordinates":[-4.420149,36.7210741,0]},"properties":{"name":"23.00 h. | Prendimiento","description":"Calle Molina Lario","styleUrl":"#icon-1899-0288D1","icon-opacity":1,"icon-color":"#0288d1","icon-scale":1,"icon-offset":[32,64],"icon-offset-units":["pixels","insetPixels"],"icon":"https://www.gstatic.com/mapspro/images/stock/503-wht-blank_maps.png"}}
]}